{
  "ordemEnderecos": [
    "Av. Paulista, 1578, São Paulo, SP, Brasil",
    "Rua Oscar Freire, 700, São Paulo, SP, Brasil",
    "Rua Augusta, 2500, São Paulo, SP, Brasil",
    "Av. Brigadeiro Faria Lima, 3477, São Paulo, SP, Brasil",
    "Rua Vergueiro, 1000, São Paulo, SP, Brasil",
    "Praça da Sé, 1, São Paulo, SP, Brasil",
    "🏁 Retorno ao Origem: Av. Paulista, 1578, São Paulo, SP, Brasil"
  ],
  "ordemEnderecosTsp": [
    "Av. Paulista, 1578, São Paulo, SP, Brasil",
    "Rua Augusta, 2500, São Paulo, SP, Brasil",
    "Rua Oscar Freire, 700, São Paulo, SP, Brasil",
    "Av. Brigadeiro Faria Lima, 3477, São Paulo, SP, Brasil",
    "Rua Vergueiro, 1000, São Paulo, SP, Brasil",
    "Praça da Sé, 1, São Paulo, SP, Brasil"
  ],
  "ordemEnderecosRefinada": [
    "Av. Paulista, 1578, São Paulo, SP, Brasil",
    "Rua Oscar Freire, 700, São Paulo, SP, Brasil",
    "Rua Augusta, 2500, São Paulo, SP, Brasil",
    "Av. Brigadeiro Faria Lima, 3477, São Paulo, SP, Brasil",
    "Rua Vergueiro, 1000, São Paulo, SP, Brasil",
    "Praça da Sé, 1, São Paulo, SP, Brasil"
  ],
  "rotaIndicesTsp": [
    0,
    1,
    2,
    4,
    5,
    3
  ],
  "distanciaOriginal": 25.25,
  "distanciaOtimizada": 22.55,
  "distanciaOriginalSemRetorno": 21.12,
  "distanciaOtimizadaSemRetorno": 18.42,
  "economiaKm": 2.7,
  "tempoEstimadoSegundos": 2502.0199999999995,
  "tempoEstimadoMinutos": 42,
  "rotaIndices": [
    0,
    2,
    1,
    4,
    5,
    3
  ],
  "rotaDetalhada": [
    {
      "posicao": 1,
      "endereco": "Av. Paulista, 1578, São Paulo, SP, Brasil",
      "tipo": "DEPOSITO",
      "pacote": null,
      "lat": -23.555036,
      "lng": -46.663479
    },
    {
      "posicao": 2,
      "endereco": "Rua Oscar Freire, 700, São Paulo, SP, Brasil",
      "tipo": "ENTREGA",
      "pacote": {
        "id": "PKG-002",
        "destinatario": "Maria Santos",
        "observacao": null
      },
      "lat": -23.550756,
      "lng": -46.678797
    },
    {
      "posicao": 3,
      "endereco": "Rua Augusta, 2500, São Paulo, SP, Brasil",
      "tipo": "ENTREGA",
      "pacote": {
        "id": "PKG-001",
        "destinatario": "João Silva",
        "observacao": "Entregar na portaria"
      },
      "lat": -23.563108,
      "lng": -46.665536
    },
    {
      "posicao": 4,
      "endereco": "Av. Brigadeiro Faria Lima, 3477, São Paulo, SP, Brasil",
      "tipo": "ENTREGA",
      "pacote": {
        "id": "PKG-004",
        "destinatario": "Ana Costa",
        "observacao": null
      },
      "lat": -23.586798,
      "lng": -46.682049
    },
    {
      "posicao": 5,
      "endereco": "Rua Vergueiro, 1000, São Paulo, SP, Brasil",
      "tipo": "ENTREGA",
      "pacote": {
        "id": "PKG-005",
        "destinatario": "Pedro Alves",
        "observacao": "Apartamento 42"
      },
      "lat": -23.571445,
      "lng": -46.640275
    },
    {
      "posicao": 6,
      "endereco": "Praça da Sé, 1, São Paulo, SP, Brasil",
      "tipo": "ENTREGA",
      "pacote": {
        "id": "PKG-003",
        "destinatario": "Carlos Lima",
        "observacao": "Ligar antes"
      },
      "lat": -23.549649,
      "lng": -46.633904
    },
    {
      "posicao": 7,
      "endereco": "Retorno ao Depósito: Av. Paulista, 1578, São Paulo, SP, Brasil",
      "tipo": "RETORNO",
      "pacote": null,
      "lat": -23.555036,
      "lng": -46.663479
    }
  ]
}